[
 {
  "name": "國立臺灣大學醫學院附設醫院",
  "contact": "江小姐",
  "phone": "(02)23123456 ext.267067、267491",
  "dial": "0223123456",
  "ext": "267067",
  "address": "臺北市中正區常德街1號",
  "url": "https://www.ntuh.gov.tw/ntuh/Index.action",
  "city": "臺北市",
  "district": "中正區",
  "lat": 25.0405,
  "lng": 121.519
 },
 {
  "name": "臺北榮民總醫院",
  "contact": "汪小姐",
  "phone": "(02)28716101、(02)55681084",
  "dial": "0228716101",
  "ext": "",
  "address": "臺北市北投區石牌路二段322號致德樓5樓",
  "url": "https://wd.vghtpe.gov.tw/Index.action?mlangloc=zh_TW",
  "city": "臺北市",
  "district": "北投區",
  "lat": 25.1205,
  "lng": 121.52
 },
 {
  "name": "長庚醫療財團法人林口長庚紀念醫院",
  "contact": "張小姐",
  "phone": "(03)3281200 ext.5201",
  "dial": "033281200",
  "ext": "5201",
  "address": "桃園市龜山區復興街5號",
  "url": "https://www.cgmh.org.tw/tw/Systems/AreaInfo/5",
  "city": "桃園市",
  "district": "龜山區",
  "lat": 25.0617,
  "lng": 121.385
 },
 {
  "name": "衛生福利部桃園醫院",
  "contact": "江小姐",
  "phone": "(03)3699721 ext.1218",
  "dial": "033699721",
  "ext": "1218",
  "address": "桃園市桃園區中山路1492 號",
  "url": "https://www.tygh.mohw.gov.tw/",
  "city": "桃園市",
  "district": "桃園區",
  "lat": 25.0085,
  "lng": 121.311
 },
 {
  "name": "國立臺灣大學醫學院附設醫院新竹臺大分院新竹醫院",
  "contact": "陳小姐",
  "phone": "(03)5326151 ext.523773、523774",
  "dial": "035326151",
  "ext": "523773",
  "address": "新竹市北區經國路一段442巷25號",
  "url": "https://www.hch.gov.tw/",
  "city": "新竹市",
  "district": "北區",
  "lat": 24.816,
  "lng": 120.97
 },
 {
  "name": "中國醫藥大學附設醫院",
  "contact": "高小姐",
  "phone": "(04)22052121 ext.12659、12660",
  "dial": "0422052121",
  "ext": "12659",
  "address": "臺中市北區育德路2號",
  "url": "https://www.cmuh.cmu.edu.tw/",
  "city": "臺中市",
  "district": "北區",
  "lat": 24.161,
  "lng": 120.685
 },
 {
  "name": "中山醫學大學附設醫院",
  "contact": "莊小姐",
  "phone": "(04)24739595 ext.296816",
  "dial": "0424739595",
  "ext": "296816",
  "address": "臺中市南區建國北路一段110號",
  "url": "https://www.csh.org.tw/",
  "city": "臺中市",
  "district": "南區",
  "lat": 24.129,
  "lng": 120.66
 },
 {
  "name": "臺中榮民總醫院",
  "contact": "盧小姐",
  "phone": "(04)23592525 ext.3630",
  "dial": "0423592525",
  "ext": "3630",
  "address": "臺中市西屯區臺灣大道四段1650號",
  "url": "https://www.vghtc.gov.tw/",
  "city": "臺中市",
  "district": "西屯區",
  "lat": 24.179,
  "lng": 120.601
 },
 {
  "name": "童綜合醫療社團法人童綜合醫院",
  "contact": "周小姐",
  "phone": "(04)26581919 ext.58230",
  "dial": "0426581919",
  "ext": "58230",
  "address": "臺中市梧棲區臺灣大道八段699號",
  "url": "https://www.sltung.com.tw/",
  "city": "臺中市",
  "district": "梧棲區",
  "lat": 24.254,
  "lng": 120.529
 },
 {
  "name": "彰化基督教醫療財團法人彰化基督教醫院",
  "contact": "蕭小姐",
  "phone": "(04)7286929、(04)7238595 ext.4131/4132",
  "dial": "047286929",
  "ext": "4131",
  "address": "彰化縣彰化市南校街135號",
  "url": "https://www.cch.org.tw/",
  "city": "彰化縣",
  "district": "彰化市",
  "lat": 24.081,
  "lng": 120.545
 },
 {
  "name": "臺大醫學院附設醫院雲林分院",
  "contact": "張小姐",
  "phone": "(05)6330002 ext.574801",
  "dial": "056330002",
  "ext": "574801",
  "address": "雲林縣虎尾鎮學府路95號",
  "url": "https://www.ylh.gov.tw/",
  "city": "雲林縣",
  "district": "虎尾鎮",
  "lat": 23.708,
  "lng": 120.433
 },
 {
  "name": "天主教中華聖母修女會醫療財團法人天主教聖馬爾定醫院",
  "contact": "張小姐",
  "phone": "(05)2756000 ext.3318",
  "dial": "052756000",
  "ext": "3318",
  "address": "嘉義市東區大雅路二段565號",
  "url": "http://www.stm.org.tw/new/default.aspx",
  "city": "嘉義市",
  "district": "東區",
  "lat": 23.49,
  "lng": 120.466
 },
 {
  "name": "國立成功大學醫學院附設醫院",
  "contact": "謝小姐",
  "phone": "(06)2353535 ext.4939",
  "dial": "062353535",
  "ext": "4939",
  "address": "臺南市北區勝利路138號",
  "url": "https://web.hosp.ncku.edu.tw/nckm/",
  "city": "臺南市",
  "district": "北區",
  "lat": 23.003,
  "lng": 120.219
 },
 {
  "name": "奇美醫療財團法人奇美醫院",
  "contact": "劉小姐",
  "phone": "(06)2812811 ext.53030",
  "dial": "062812811",
  "ext": "53030",
  "address": "臺南市永康區中華路901號",
  "url": "https://www.chimei.org.tw/index.html",
  "city": "臺南市",
  "district": "永康區",
  "lat": 23.039,
  "lng": 120.239
 },
 {
  "name": "高雄醫學大學附設中和紀念醫院",
  "contact": "羅先生",
  "phone": "(07)3133604 ext.41",
  "dial": "073133604",
  "ext": "41",
  "address": "高雄市三民區自由一路100號",
  "url": "https://www.kmuh.org.tw/KMUHInterWeb/InterWeb/Home",
  "city": "高雄市",
  "district": "三民區",
  "lat": 22.649,
  "lng": 120.307
 },
 {
  "name": "高雄榮民總醫院",
  "contact": "黃小姐",
  "phone": "(07)3422121 ext.75157",
  "dial": "073422121",
  "ext": "75157",
  "address": "高雄市左營區大中一路386號（健康照護大樓）",
  "url": "https://www.vghks.gov.tw/",
  "city": "高雄市",
  "district": "左營區",
  "lat": 22.676,
  "lng": 120.3
 },
 {
  "name": "高雄市立小港醫院（委託財團法人私立高雄醫學大學經營）",
  "contact": "林先生",
  "phone": "(07)8026767",
  "dial": "078026767",
  "ext": "",
  "address": "高雄市小港區山明路482號",
  "url": "https://www.kmsh.org.tw/index.asp",
  "city": "高雄市",
  "district": "小港區",
  "lat": 22.565,
  "lng": 120.353
 },
 {
  "name": "長庚醫療財團法人高雄長庚紀念醫院",
  "contact": "陳小姐",
  "phone": "(07)7317123 ext.8372",
  "dial": "077317123",
  "ext": "8372",
  "address": "高雄市鳥松區大埤路123號",
  "url": "https://cghdpt.cgmh.org.tw/branch/shk",
  "city": "高雄市",
  "district": "鳥松區",
  "lat": 22.658,
  "lng": 120.362
 },
 {
  "name": "佛教慈濟醫療財團法人花蓮慈濟醫院",
  "contact": "王小姐",
  "phone": "(03)8462972、(03)856182 ext.12144",
  "dial": "038462972",
  "ext": "12144",
  "address": "花蓮縣花蓮市中央路三段707號",
  "url": "https://hlm.tzuchi.com.tw/home/",
  "city": "花蓮縣",
  "district": "花蓮市",
  "lat": 23.993,
  "lng": 121.605
 }
]